[{"type": "Cricket,Football", "name": "Hogans Road Reserve", "location": {"type": "Point", "coordinates": [144.694199800627, -37.8629975844907]}}, {"type": "Soccer,Basketball", "name": "Grange Reserve", "location": {"type": "Point", "coordinates": [144.676188200238, -37.8604647141088]}}, {"type": "Cricket,Football", "name": "Dunnings Road Reserve", "location": {"type": "Point", "coordinates": [144.739975443285, -37.8843227387044]}}, {"type": "Cricket,Football,Tennis,Lawn Bowls", "name": "Chirnside Park", "location": {"type": "Point", "coordinates": [144.652189040693, -37.9052551478861]}}, {"type": "Skate Park", "name": "Boardwalk Skate Park", "location": {"type": "Point", "coordinates": [144.735405787089, -37.8805100463003]}}, {"type": "Tennis,Netball", "name": "Jamieson Way Tennis & Netball Complex", "location": {"type": "Point", "coordinates": [144.748409575849, -37.8965437781371]}}, {"type": "Hockey,Baseball,Softball,Skate Park", "name": "Presidents Park", "location": {"type": "Point", "coordinates": [144.633548619824, -37.8842685354479]}}, {"type": "Cricket,Football", "name": "Wyndham Vale", "location": {"type": "Point", "coordinates": [144.624294222252, -37.8993478631899]}}, {"type": "Cricket,Football,Soccer,Tennis,Netball", "name": "Galvin Park", "location": {"type": "Point", "coordinates": [144.651288647232, -37.8866966217514]}}, {"type": "Cricket,Tennis", "name": "Cambridge Reserve", "location": {"type": "Point", "coordinates": [144.676162846652, -37.8703308311805]}}, {"type": "Cricket,Football,Tennis,Netball", "name": "Little River Reserve", "location": {"type": "Point", "coordinates": [144.497398592796, -37.9616436778638]}}, {"type": "Cricket,Football,Softball,Archery", "name": "Laurie Emmins Reserve", "location": {"type": "Point", "coordinates": [144.764996817127, -37.852305285889]}}, {"type": "Cricket,Skate Park,Rugby,Netball", "name": "Mossfiel Reserve", "location": {"type": "Point", "coordinates": [144.692834869028, -37.8771896177535]}}, {"type": "Cricket,Football", "name": "Warringa Crescent Reserve", "location": {"type": "Point", "coordinates": [144.689403750871, -37.885096616919]}}, {"type": "Cricket,Football,Netball", "name": "Soldiers Reserve", "location": {"type": "Point", "coordinates": [144.666382108254, -37.9057623056936]}}, {"type": "Cricket,Football,BMX Track", "name": "Heathdale/Glen Orden Reserve", "location": {"type": "Point", "coordinates": [144.673689603758, -37.8851874521863]}}, {"type": "Cricket,Football,Tennis", "name": "Wootten Road Reserve", "location": {"type": "Point", "coordinates": [144.65856390375, -37.8573882885481]}}, {"type": "Cricket,Football", "name": "Wyndham Vale South Reserve", "location": {"type": "Point", "coordinates": [144.624648737651, -37.9024452488726]}}, {"type": "Cricket,Football", "name": "Windorah Drive Reserve", "location": {"type": "Point", "coordinates": [144.7296525499, -37.8999212019405]}}, {"type": "Cricket,Soccer,Rugby", "name": "Clearwood Drive Reserve", "location": {"type": "Point", "coordinates": [144.718293780564, -37.8401311394228]}}, {"type": "Cricket,Football", "name": "Goddard Street Reserve", "location": {"type": "Point", "coordinates": [144.677191672955, -37.837284256898]}}, {"type": "Cricket,Soccer", "name": "Hummingbird Boulevard Reserve", "location": {"type": "Point", "coordinates": [144.663162096015, -37.8369124165282]}}, {"type": "Cricket,Football", "name": "Howqua Way Reserve", "location": {"type": "Point", "coordinates": [144.604588226562, -37.8748619076724]}}, {"type": "Cricket,Rugby", "name": "Haines Drive Reserve", "location": {"type": "Point", "coordinates": [144.609437942157, -37.8977331313165]}}, {"type": "Soccer,Athletics", "name": "VU Wyndham Sports Complex", "location": {"type": "Point", "coordinates": [144.702473412576, -37.8923532700303]}}, {"type": "Cricket,Football,Soccer,Tennis,Basketball", "name": "Saltwater Reserve", "location": {"type": "Point", "coordinates": [144.754831325835, -37.9087683616363]}}, {"type": "Cricket", "name": "Point Cook Primary School", "location": {"type": "Point", "coordinates": [144.746576379073, -37.9279394978773]}}, {"type": "Cricket,Soccer", "name": "Federation Boulevard Reserve", "location": {"type": "Point", "coordinates": [144.729578079732, -37.8626977446995]}}, {"type": "Cricket,Soccer", "name": "Tom Roberts Parade Reserve", "location": {"type": "Point", "coordinates": [144.727552613866, -37.8946580018296]}}, {"type": "Cricket,Football,Soccer,Basketball,Beach Volleyball", "name": "Prudence Parade Reserve", "location": {"type": "Point", "coordinates": [144.738696274919, -37.9077674195167]}}, {"type": "Cricket,Football,Tennis", "name": "Price Reserve", "location": {"type": "Point", "coordinates": [144.691373436831, -37.9735355294324]}}, {"type": "Basketball,Skate Park", "name": "Possy Newland Reserve", "location": {"type": "Point", "coordinates": [144.498821587265, -37.9646422877827]}}]